{
  "cities": [
    {
      "cityName": "Lisbon",
      "country": "Portugal",
      "emoji": "ðŸ‡µðŸ‡¹",
      "date": "2027-10-31T15:59:59.138Z",
      "notes": "My favorite city so far!",
      "position": {
        "lat": 38.727881642324164,
        "lng": -9.140900099907554
      },
      "id": "73930385"
    },
    {
      "cityName": "Madrid",
      "country": "Spain",
      "emoji": "ðŸ‡ªðŸ‡¸",
      "date": "2027-07-15T08:22:53.976Z",
      "notes": "",
      "position": {
        "lat": 40.46635901755316,
        "lng": -3.7133789062500004
      },
      "id": "17806751"
    },
    {
      "cityName": "Berlin",
      "country": "Germany",
      "emoji": "ðŸ‡©ðŸ‡ª",
      "date": "2027-02-12T09:24:11.863Z",
      "notes": "Amazing ðŸ˜ƒ",
      "position": {
        "lat": 52.53586782505711,
        "lng": 13.376933665713324
      },
      "id": "98443197"
    },
    {
      "id": "3264",
      "cityName": "Evlalo",
      "country": "Greece",
      "emoji": "ðŸ‡¬ðŸ‡·",
      "date": "2024-02-29T20:53:10.687Z",
      "notes": "sdadasd",
      "position": {
        "lat": "40.964344957571605",
        "lng": "24.85931396484375"
      }
    },
    {
      "id": "124f",
      "cityName": "Pyriatyn",
      "country": "Ukraine",
      "emoji": "ðŸ‡ºðŸ‡¦",
      "date": "2024-02-29T21:34:32.865Z",
      "notes": "kjkjhj",
      "position": {
        "lat": "50.233151832472245",
        "lng": "32.16796875000001"
      }
    }
  ]
}